,City,Lat,Lng,Temp,Humidity,Max Temp,Cloudiness,Wind Speed,Country,Date
0,Savelugu,9.62,-0.83,74.59,87,74.59,100,7.31,GH,1598371944
1,Forsytheganj,52.63,29.73,65.98,85,65.98,92,5.97,BY,1598371944
2,Pevek,69.7,170.31,37.65,97,37.65,100,3.33,RU,1598371944
3,Borshchiv,48.8,26.04,64.0,82,64.0,100,4.0,UA,1598371945
4,Mehamn,71.04,27.85,53.6,66,53.6,20,9.17,NO,1598371945
5,La Ronge,55.1,-105.28,51.8,87,51.8,90,8.05,CA,1598371945
6,Hithadhoo,-0.6,73.08,82.02,77,82.02,99,10.42,MV,1598371946
7,Busselton,-33.65,115.33,48.22,74,48.99,2,2.82,AU,1598371946
8,Kiunga,-6.12,141.29,71.51,98,71.51,99,2.95,PG,1598371946
9,Kununurra,-15.77,128.73,68.0,25,68.0,0,3.36,AU,1598371947
10,Chernyshevskiy,63.01,112.47,42.62,70,42.62,0,2.95,RU,1598371926
11,Nanortalik,60.14,-45.24,47.14,78,47.14,0,7.25,GL,1598371947
12,Faanui,-16.48,-151.75,75.81,83,75.81,10,21.16,PF,1598371734
13,Pisco,-13.7,-76.22,64.24,77,64.4,75,6.93,PE,1598371948
14,Ribeira Grande,38.52,-28.7,77.0,88,77.0,75,13.87,PT,1598371948
15,Upernavik,72.79,-56.15,42.06,90,42.06,100,4.43,GL,1598371949
16,Bluff,-46.6,168.33,45.0,72,45.0,90,11.01,NZ,1598371949
17,Atuona,-9.8,-139.03,77.95,74,77.95,10,15.48,PF,1598371950
18,College,64.86,-147.8,51.3,87,51.8,90,0.92,US,1598371950
19,Kapaa,22.08,-159.32,71.17,77,73.99,20,12.75,US,1598371950
20,Oruzgan,32.83,66.0,79.65,23,79.65,0,6.04,AF,1598371950
21,East London,-33.02,27.91,69.8,77,69.8,0,8.05,ZA,1598371774
22,Mataura,-46.19,168.86,45.0,72,45.0,96,11.01,NZ,1598371951
23,Rikitea,-23.12,-134.97,69.37,84,69.37,0,14.0,PF,1598371951
24,Nantucket,41.28,-70.1,77.0,83,77.0,1,18.34,US,1598371793
25,Waipawa,-41.41,175.52,45.0,66,48.2,97,27.51,NZ,1598371952
26,Albany,42.6,-73.97,79.27,68,80.01,33,10.65,US,1598371756
27,Naze,28.37,129.48,82.4,94,82.4,90,12.75,JP,1598371952
28,Khatanga,71.97,102.5,57.51,67,57.51,23,6.4,RU,1598371953
29,Jamestown,42.1,-79.24,75.33,88,77.0,90,10.29,US,1598371743
30,Ushuaia,-54.8,-68.3,41.0,52,41.0,75,3.36,AR,1598371877
31,Bandarbeyla,9.49,50.81,77.32,79,77.32,25,30.18,SO,1598371953
32,Hermanus,-34.42,19.23,62.01,75,62.01,18,3.0,ZA,1598371954
33,Eureka,40.8,-124.16,55.69,100,55.99,0,5.41,US,1598371954
34,North Platte,41.12,-100.77,80.71,44,82.0,1,10.29,US,1598371658
35,Bambous Virieux,-20.34,57.76,71.78,73,72.0,20,6.93,MU,1598371954
36,Hong Kong,22.29,114.16,85.03,74,86.0,0,11.99,HK,1598371836
37,Punta Arenas,-53.15,-70.92,37.2,69,37.4,75,13.87,CL,1598371955
38,Hobart,-42.88,147.33,47.91,83,50.0,98,18.34,AU,1598371766
39,Qaanaaq,77.48,-69.36,36.81,88,36.81,100,6.06,GL,1598371955
40,Saint-Philippe,-21.36,55.77,66.54,73,72.0,90,3.36,RE,1598371956
41,Airai,-8.93,125.41,53.33,74,53.33,2,4.18,TL,1598371956
42,Verkhoyansk,67.54,133.38,36.37,80,36.37,0,3.69,RU,1598371956
43,Half Moon Bay,37.46,-122.43,62.29,88,64.99,90,4.21,US,1598371849
44,Saskylakh,71.92,114.08,54.59,57,54.59,100,9.01,RU,1598371925
45,Kloulklubed,7.04,134.26,77.0,94,77.0,75,7.94,PW,1598371957
46,Batagay,67.63,134.63,33.62,89,33.62,0,2.44,RU,1598371959
47,Hervey Bay,-25.3,152.85,51.71,87,53.01,0,10.16,AU,1598371959
48,Avera,33.19,-82.53,78.87,100,80.6,90,4.7,US,1598371960
49,Nikolskoye,59.7,30.79,65.37,59,66.2,40,4.47,RU,1598371960
50,Norden,53.6,7.2,62.17,82,62.6,75,11.41,DE,1598371961
51,Cape Canaveral,28.41,-80.6,88.83,70,90.0,1,13.87,US,1598371961
52,Kavaratti,10.57,72.64,81.66,74,81.66,67,10.69,IN,1598371961
53,Port Elizabeth,-33.92,25.57,62.6,77,62.6,0,28.86,ZA,1598371962
54,Sitka,57.05,-135.33,53.6,93,53.6,90,3.36,US,1598371962
55,Cape Town,-33.93,18.42,61.61,82,64.0,40,13.87,ZA,1598371871
56,Nelas,40.53,-7.85,86.81,24,91.0,0,5.01,PT,1598371962
57,Alofi,-19.06,-169.92,69.8,94,69.8,96,3.36,NU,1598371963
58,Vila Franca do Campo,37.72,-25.43,77.0,83,77.0,20,9.17,PT,1598371963
59,Ponta do Sol,32.67,-17.1,76.77,61,78.8,20,23.04,PT,1598371963
60,Norman Wells,65.28,-126.83,53.6,87,53.6,75,5.82,CA,1598371964
61,Matane,48.83,-67.52,64.0,1,64.0,100,10.07,CA,1598371828
62,Kiryat Gat,31.61,34.76,83.25,51,86.0,0,3.0,IL,1598371862
63,Koslan,63.46,48.9,57.63,89,57.63,97,10.04,RU,1598371964
64,Mar del Plata,-38.0,-57.56,55.4,93,55.4,100,8.05,AR,1598371964
65,Esperance,-33.87,121.9,51.8,100,51.8,36,6.93,AU,1598371965
66,Kabansk,52.05,106.65,53.6,87,53.6,0,2.24,RU,1598371700
67,Tuktoyaktuk,69.45,-133.04,44.6,100,44.6,90,8.05,CA,1598371965
68,Dahuk,36.87,42.99,86.59,19,86.59,0,5.91,IQ,1598371965
69,Tevriz,57.51,72.4,53.19,94,53.19,48,4.27,RU,1598371966
70,Castro,-24.79,-50.01,62.67,67,62.67,12,10.0,BR,1598371881
71,Broken Hill,-31.95,141.43,44.6,56,44.6,0,8.05,AU,1598371966
72,Avarua,-21.21,-159.78,71.6,83,71.6,81,5.82,CK,1598371966
73,Kakonko,-3.28,30.96,75.99,41,75.99,64,4.07,TZ,1598371967
74,Chokurdakh,70.63,147.92,37.29,89,37.29,99,6.2,RU,1598371967
75,Khartoum,15.55,32.53,94.44,34,95.0,20,6.93,SD,1598371967
76,Puerto Escondido,15.85,-97.07,75.2,78,75.2,90,3.36,MX,1598371698
77,Verkhniy Baskunchak,48.23,46.72,76.71,26,76.71,0,1.45,RU,1598371968
78,Port Alfred,-33.59,26.89,65.84,79,65.84,0,9.1,ZA,1598371968
79,Yulara,-25.24,130.99,69.8,21,69.8,0,8.05,AU,1598371968
80,Zhengjiatun,43.51,123.51,71.04,90,71.04,100,5.39,CN,1598371969
81,Mnogovershinnyy,53.94,139.92,51.44,100,51.44,100,4.74,RU,1598371925
82,New Norfolk,-42.78,147.06,45.57,79,48.0,100,3.0,AU,1598371969
83,Saint Paul Harbor,57.79,-152.41,50.0,71,50.0,20,6.93,US,1598371970
84,Chui,-33.7,-53.46,64.76,67,64.76,100,10.94,UY,1598371970
85,Kurya,51.6,82.29,54.55,89,54.55,100,7.87,RU,1598371970
86,Zilair,52.23,57.44,58.86,83,58.86,1,4.25,RU,1598371970
87,Aleksandriyskaya,44.23,43.35,77.0,25,77.0,0,15.66,RU,1598371971
88,Zorgo,12.25,-0.62,79.65,78,79.65,72,14.05,BF,1598371971
89,Mogadishu,2.04,45.34,77.52,82,77.52,78,15.48,SO,1598371783
90,Rawson,-43.3,-65.1,48.04,69,48.04,80,17.18,AR,1598371972
91,Saint George,37.1,-113.58,84.81,34,87.01,1,3.36,US,1598371860
92,West Wendover,40.74,-114.07,77.0,44,77.0,1,8.05,US,1598371973
93,Corrales,35.24,-106.61,77.63,52,79.0,9,1.99,US,1598371799
94,Bonavista,48.65,-53.11,63.0,73,63.0,17,3.0,CA,1598371944
95,Stepnyak,52.83,70.78,58.82,68,58.82,29,7.83,KZ,1598371974
96,Khovd,48.01,91.64,64.38,41,64.38,99,11.68,MN,1598371974
97,Butaritari,3.07,172.79,81.88,65,81.88,81,4.74,KI,1598371974
98,Vaini,-21.2,-175.2,66.2,93,66.2,20,2.24,TO,1598371974
99,Ashland,40.82,-82.27,81.68,66,84.2,1,9.17,US,1598371974
100,Husavik,66.04,-17.34,51.8,71,51.8,1,6.93,IS,1598371975
101,Tessaoua,13.76,7.99,90.19,41,90.19,65,3.89,NE,1598371975
102,Tiksi,71.69,128.87,37.69,87,37.69,0,10.74,RU,1598371975
103,Marabu,4.41,114.01,84.11,83,84.2,40,5.82,MY,1598371924
104,Ajnāla,31.84,74.76,82.4,83,82.4,40,2.24,IN,1598371975
105,Vila Velha,-20.33,-40.29,73.08,49,73.99,75,20.8,BR,1598371926
106,Clyde River,70.47,-68.59,43.25,69,43.25,2,7.2,CA,1598371976
107,Henties Bay,-22.12,14.28,55.99,81,55.99,7,4.0,NA,1598371977
108,Hachinohe,40.5,141.5,72.66,94,73.4,75,3.36,JP,1598371977
109,Ambilobe,-13.2,49.05,73.62,79,73.62,69,2.86,MG,1598371977
110,Qaqortoq,60.72,-46.03,51.8,66,51.8,20,6.93,GL,1598371978
111,Buala,-8.14,159.59,80.06,80,80.06,27,4.94,SB,1598371978
112,Kirakira,-10.45,161.92,79.25,80,79.25,48,6.87,SB,1598371978
113,Lagunillas,10.13,-71.26,86.72,67,86.72,100,8.32,VE,1598371978
114,Urucará,-2.54,-57.76,94.8,38,94.8,26,3.67,BR,1598371979
115,Najrān,17.49,44.13,100.4,15,100.4,40,8.05,SA,1598371979
116,Narsaq,60.92,-46.05,51.8,66,51.8,20,6.93,GL,1598371979
117,Ola,59.58,151.28,46.8,66,46.8,100,3.49,RU,1598371980
118,Tiznit Province,29.58,-9.5,102.88,10,102.88,83,3.33,MA,1598371980
119,Inhambane,-23.86,35.38,75.24,88,77.0,20,17.22,MZ,1598371980
120,Cayenne,4.93,-52.33,84.2,83,84.2,21,8.05,GF,1598371815
121,Sydney,-33.87,151.21,44.94,70,48.2,0,5.82,AU,1598371783
122,Lompoc,34.64,-120.46,61.93,93,62.6,90,6.02,US,1598371981
123,Mahanoro,-19.9,48.8,69.67,84,69.67,49,5.03,MG,1598371981
124,Mariinsk,56.21,87.75,55.94,88,55.94,100,2.8,RU,1598371981
125,Biak,-0.91,122.88,75.99,81,75.99,87,7.63,ID,1598371981
126,Palauig,15.44,119.9,82.69,80,82.69,98,5.77,PH,1598371982
127,Pacific Grove,36.62,-121.92,58.84,91,60.01,78,1.48,US,1598371982
128,Buta,2.79,24.73,80.47,70,80.47,91,1.74,CD,1598371982
129,Glossa,35.47,23.78,82.4,61,82.4,0,12.75,GR,1598371983
130,Haines Junction,60.75,-137.51,49.5,72,49.5,96,1.54,CA,1598371983
131,Manakara,-22.13,48.02,70.29,85,70.29,50,9.26,MG,1598371983
132,Katherine,-14.47,132.27,73.4,18,73.4,0,8.05,AU,1598371983
133,Lufilufi,-13.87,-171.6,73.4,100,73.4,20,5.82,WS,1598371984
134,Touros,-5.2,-35.46,86.0,55,86.0,75,11.41,BR,1598371984
135,Cartagena del Chairá,1.33,-74.84,86.41,53,86.41,61,3.69,CO,1598371984
136,Powell,40.16,-83.08,84.45,70,86.0,1,8.05,US,1598371984
137,Mama,58.31,112.9,49.17,66,49.17,0,4.0,RU,1598371985
138,Rodolfo Sánchez Taboada,31.72,-116.57,73.0,90,73.0,1,1.99,MX,1598371985
139,Puerto Ayora,-0.74,-90.35,69.96,64,71.6,75,18.34,EC,1598371985
140,Thompson,55.74,-97.86,50.0,76,50.0,90,6.93,CA,1598371985
141,Torbay,47.67,-52.73,60.55,72,63.0,75,9.17,CA,1598371768
142,El Níspero,14.77,-88.33,80.89,71,80.89,96,2.93,HN,1598371986
143,Pitimbu,-7.47,-34.81,84.2,58,84.2,40,9.17,BR,1598371854
144,Guerrero Negro,27.98,-114.06,77.56,71,77.56,0,11.01,MX,1598371986
145,Cabo San Lucas,22.89,-109.91,86.61,51,87.01,20,5.82,MX,1598371987
146,Provideniya,64.38,-173.3,48.18,90,48.18,99,2.19,RU,1598371987
147,Novyy Nekouz,57.9,38.07,63.84,84,63.84,99,4.61,RU,1598371987
148,Klaksvík,62.23,-6.59,48.2,76,48.2,95,6.93,FO,1598371987
149,Vikhorevka,56.12,101.16,53.29,93,53.6,0,4.47,RU,1598371988
150,Hilo,19.73,-155.09,65.93,69,73.4,90,3.36,US,1598371716
151,Pombas,17.15,-25.02,87.8,58,87.8,75,9.17,CV,1598371988
152,Ventersburg,-28.09,27.14,67.66,24,67.66,0,10.51,ZA,1598371988
153,Ponferrada,42.55,-6.6,88.2,34,91.0,0,5.01,ES,1598371989
154,Zgorzelec,51.15,15.01,71.01,56,71.01,81,1.99,PL,1598371989
155,Jinka,5.65,36.65,70.56,64,70.56,55,1.1,ET,1598371989
156,Bredasdorp,-34.53,20.04,62.6,67,62.6,0,16.11,ZA,1598371990
157,Ketchikan,55.34,-131.65,54.32,100,55.4,90,9.17,US,1598371990
158,Fujinomiya,35.22,138.62,73.4,94,75.0,0,2.1,JP,1598371990
159,Gamba,-2.65,10.0,76.91,73,76.91,53,9.55,GA,1598371990
160,Cidreira,-30.18,-50.21,65.41,68,65.41,23,23.2,BR,1598371991
161,Maniitsoq,65.42,-52.9,46.8,75,46.8,44,6.15,GL,1598371991
162,Hofn,64.25,-15.21,50.67,80,50.67,72,5.59,IS,1598371991
163,San Carlos,9.66,-68.58,85.17,68,85.17,72,3.27,VE,1598371991
164,Elliot,-31.33,27.85,66.42,24,66.42,0,9.48,ZA,1598371992
165,George Town,5.41,100.34,78.49,94,80.6,20,2.24,MY,1598371992
166,Saint-François,46.42,3.91,86.4,24,87.01,0,1.99,FR,1598371993
167,Cherskiy,68.75,161.3,37.96,96,37.96,100,3.58,RU,1598371993
168,Kokkola,63.84,23.13,56.19,82,57.0,5,4.7,FI,1598371993
169,Grand Gaube,-20.01,57.66,72.0,71,72.0,36,5.01,MU,1598371993
170,Lahaina,20.88,-156.68,73.81,65,78.8,1,12.75,US,1598371926
171,Andapa,-14.65,49.65,65.37,90,65.37,57,1.83,MG,1598371994
172,Barrow,71.29,-156.79,39.2,93,39.2,90,4.7,US,1598371995
173,Leningradskiy,69.38,178.42,41.45,95,41.45,100,9.55,RU,1598371995
174,Carnarvon,-24.87,113.63,64.4,82,64.4,0,17.22,AU,1598371995
175,Griffith,41.53,-87.42,81.34,58,82.99,40,3.51,US,1598371996
176,Tabou,4.42,-7.35,78.35,72,78.35,82,7.78,CI,1598371996
177,Srednekolymsk,67.45,153.68,37.81,82,37.81,95,2.62,RU,1598371996
178,Quang Ngai,15.12,108.8,81.36,79,81.36,100,4.7,VN,1598371997
179,Bambanglipuro,-7.95,110.28,75.65,85,75.65,33,8.3,ID,1598371997
180,Nemuro,43.32,145.57,64.38,96,64.38,95,12.28,JP,1598371795
181,Mlonggo,-6.53,110.7,77.07,77,77.07,5,5.48,ID,1598371997
182,Los Llanos de Aridane,28.66,-17.92,80.13,74,81.0,20,16.11,ES,1598371998
183,Pangoa,-12.12,-73.0,79.99,59,79.99,46,4.72,PE,1598371998
184,Olinda,-8.01,-34.86,82.4,61,82.4,40,12.75,BR,1598371998
185,Mariehamn,60.1,19.93,64.4,48,64.4,0,9.17,AX,1598371998
186,Greytown,-29.06,30.59,66.94,27,66.94,0,3.74,ZA,1598371718
187,Talnakh,69.49,88.4,57.2,82,57.2,40,6.71,RU,1598371999
188,Viranşehir,37.24,39.76,88.0,14,88.0,0,5.79,TR,1598371999
189,Pervomayskiy,53.25,40.29,67.69,76,67.69,100,3.29,RU,1598371999
190,Tilichiki,60.47,166.1,37.26,83,37.26,0,7.45,RU,1598372000
191,Kungurtug,50.6,97.52,50.97,83,50.97,94,0.74,RU,1598372000
192,Khani,41.96,42.96,82.4,30,82.4,0,20.8,GE,1598372000
193,Ciudad Guayana,8.35,-62.65,89.01,64,89.01,15,1.99,VE,1598372000
194,Fuling,29.7,107.39,73.45,83,73.45,0,2.91,CN,1598372000
195,Saint Lawrence,36.06,14.2,82.85,54,84.2,0,12.75,MT,1598372001
196,Lebu,-37.62,-73.65,53.49,80,53.49,78,17.6,CL,1598372001
197,Tasiilaq,65.61,-37.64,46.4,65,46.4,5,6.93,GL,1598372001
198,Campo Grande,-20.44,-54.65,84.2,32,84.2,0,18.34,BR,1598372001
199,Yellowknife,62.46,-114.35,53.22,100,53.6,90,9.17,CA,1598372001
200,Arraial do Cabo,-22.97,-42.03,73.4,46,73.4,40,16.11,BR,1598372002
201,Tuatapere,-46.13,167.68,45.0,72,45.0,54,11.01,NZ,1598372002
202,Vanavara,60.34,102.28,54.16,63,54.16,48,7.27,RU,1598372002
203,Porto-Novo,6.5,2.6,80.35,68,80.35,71,10.22,BJ,1598372002
204,Ilulissat,69.22,-51.1,42.8,81,42.8,75,8.05,GL,1598372003
205,Yangi Marg`ilon,40.43,71.72,78.8,44,78.8,99,11.54,UZ,1598372003
206,Oranjemund,-28.55,16.43,58.15,75,58.15,0,8.28,NA,1598372003
207,Coahuayana Viejo,18.73,-103.68,73.4,88,73.4,75,1.16,MX,1598372003
208,Pámfila,39.16,26.52,87.8,48,87.8,0,6.51,GR,1598372003
209,Rudnya,54.95,31.09,69.8,60,69.8,40,8.95,RU,1598372003
210,Oddur,4.12,43.89,82.33,52,82.33,96,20.92,SO,1598372004
211,Hamilton,39.18,-84.53,86.4,66,88.0,20,8.05,US,1598371830
212,Praia da Vitória,38.73,-27.07,84.2,62,84.2,40,11.95,PT,1598372004
213,Nouadhibou,20.93,-17.03,80.6,74,80.6,0,12.75,MR,1598371800
214,Kemijärvi,66.71,27.43,56.5,52,56.5,17,7.74,FI,1598372005
215,Baghdad,33.34,44.4,102.2,12,102.2,0,16.11,IQ,1598371732
216,Baykit,61.67,96.37,54.99,73,54.99,69,4.36,RU,1598372006
217,Nhulunbuy,-12.23,136.77,73.4,78,73.4,5,12.75,AU,1598372006
218,Seoul,37.57,126.98,82.78,70,86.0,90,4.14,KR,1598372006
219,Mount Gambier,-37.83,140.77,42.8,87,42.8,90,5.82,AU,1598372007
220,Saint Anthony,45.02,-93.22,79.52,69,81.0,1,6.93,US,1598372007
221,Dikson,73.51,80.55,46.13,98,46.13,1,0.89,RU,1598372007
222,Yangmei,24.1,112.56,75.47,93,75.47,10,3.02,CN,1598372007
223,Sumbe,-11.21,13.84,73.65,76,73.65,8,10.51,AO,1598372007
224,Padang,-0.95,100.35,78.46,78,78.46,49,4.72,ID,1598372008
225,Tromsø,69.65,18.96,50.0,87,50.0,75,9.17,NO,1598372008
226,Mayo,38.89,-76.51,86.07,66,88.0,1,9.17,US,1598372008
227,Navahrudak,53.6,25.83,60.19,88,60.19,100,5.75,BY,1598372008
228,Strezhevoy,60.73,77.59,51.8,100,51.8,100,4.47,RU,1598372009
229,Yumen,40.28,97.2,78.21,17,78.21,0,8.68,CN,1598372009
230,Smolenka,52.14,113.5,55.4,87,55.4,55,4.47,RU,1598372009
231,San Patricio,19.22,-104.7,80.6,94,80.6,90,5.66,MX,1598372009
232,Cimişlia,46.52,28.78,86.0,33,86.0,99,8.05,MD,1598372009
233,Codrington,-38.27,141.97,40.37,91,40.37,18,6.85,AU,1598372010
234,Santa Lucía,27.91,-15.54,81.59,69,84.0,7,34.45,ES,1598372010
235,Along,28.17,94.77,76.66,82,76.66,0,1.74,IN,1598372010
236,Beringovskiy,63.05,179.32,47.82,85,47.82,87,10.31,RU,1598372010
237,Kaoma,-14.78,24.8,79.61,17,79.61,0,4.38,ZM,1598372011
238,Severo-Kuril'sk,50.68,156.12,53.08,93,53.08,100,13.89,RU,1598372011
239,Frederick,39.47,-77.4,81.45,66,84.2,40,10.29,US,1598372011
240,Mount Juliet,36.2,-86.52,84.13,66,84.2,40,4.7,US,1598371810
241,Paita,-5.09,-81.11,69.8,68,69.8,6,18.34,PE,1598372012
242,Saldanha,-33.01,17.94,60.8,82,60.8,63,5.82,ZA,1598372012
243,Bud,39.45,-86.18,85.68,69,87.01,0,4.0,US,1598372012
244,Moche,-8.17,-79.01,64.54,70,64.54,59,9.82,PE,1598372013
245,Calama,-22.47,-68.93,55.4,66,55.4,75,6.93,CL,1598372013
246,Nanning,22.82,108.32,82.4,83,82.4,97,4.47,CN,1598372013
247,Ternate,0.8,127.4,80.01,77,80.01,42,5.17,ID,1598372014
248,Río Gallegos,-51.62,-69.22,39.2,64,39.2,0,11.41,AR,1598372014
249,Pontes e Lacerda,-15.23,-59.34,101.14,19,101.14,0,4.63,BR,1598372014
250,Mórrope,-6.54,-80.01,64.4,72,64.4,90,19.46,PE,1598372015
251,Limbang,4.75,115.0,80.29,88,80.6,75,2.24,MY,1598372015
252,Port Blair,11.67,92.75,82.36,81,82.36,46,7.4,IN,1598372015
253,Iqaluit,63.75,-68.51,48.09,66,48.2,75,16.11,CA,1598372015
254,Liverpool,53.41,-2.98,59.95,87,60.8,75,29.97,GB,1598371946
255,Aswān,24.09,32.91,101.86,11,101.86,0,11.72,EG,1598372016
256,The Valley,18.22,-63.06,86.25,70,87.8,20,11.41,AI,1598372016
257,Saint-Augustin,51.23,-58.65,64.99,61,64.99,94,11.65,CA,1598372017
258,Itacoatiara,-3.14,-58.44,96.26,36,96.26,2,4.76,BR,1598372017
259,Arrondissement de Lons-le-Saunier,46.75,5.75,83.44,28,87.01,1,14.99,FR,1598372017
260,Portland,45.52,-122.68,59.02,82,62.01,75,5.82,US,1598372018
261,Gairo,39.85,9.5,86.72,55,87.8,40,6.93,IT,1598372018
262,Katangli,51.71,143.23,54.91,98,54.91,100,9.82,RU,1598372019
263,Sakakah,29.97,40.21,104.0,8,104.0,0,8.05,SA,1598372019
264,Kahului,20.89,-156.47,74.53,65,78.8,1,12.75,US,1598372019
265,Chāndor,20.33,74.25,71.62,89,71.62,28,12.8,IN,1598372020
266,Aklavik,68.22,-135.01,48.2,100,48.2,75,10.94,CA,1598372020
267,Geraldton,-28.77,114.6,50.0,87,50.0,0,5.82,AU,1598372020
268,Dunedin,-45.87,170.5,39.33,85,41.0,55,1.99,NZ,1598371854
269,São João da Barra,-21.64,-41.05,75.2,44,75.2,20,23.04,BR,1598372021
270,Kruisfontein,-34.0,24.73,62.01,68,62.01,0,5.01,ZA,1598372021
271,Straumen,63.87,11.3,52.43,87,55.99,90,16.11,NO,1598372021
272,Bengkulu,-3.8,102.27,78.49,78,78.49,100,9.57,ID,1598372022
273,Sumenep,-7.02,113.87,79.74,77,79.74,11,15.68,ID,1598372022
274,Vostok,46.49,135.88,59.94,100,59.94,79,3.74,RU,1598372022
275,Sisimiut,66.94,-53.67,48.42,72,48.42,73,6.67,GL,1598372023
276,Bolshoye Nagatkino,54.52,47.97,65.19,87,65.19,35,4.81,RU,1598372023
277,Ormara,25.21,64.64,82.42,83,82.42,100,8.28,PK,1598372023
278,Hukuntsi,-24.0,21.75,70.18,20,70.18,0,2.53,BW,1598372023
279,Zyryanka,65.75,150.85,36.19,82,36.19,48,5.86,RU,1598371926
280,Anloga,5.79,0.9,82.4,69,82.4,20,16.11,GH,1598372024
281,Leopold,-38.18,144.47,43.93,100,46.4,90,4.7,AU,1598372024
282,Dubbo,-32.25,148.62,33.8,90,33.8,0,6.93,AU,1598372025
283,Peleduy,59.63,112.74,49.53,64,49.53,0,6.15,RU,1598372025
284,Chalchihuites,23.48,-103.88,64.85,59,64.85,55,6.22,MX,1598372026
285,Champerico,14.3,-91.92,79.72,78,82.4,40,4.7,GT,1598372026
286,Sarajevo,43.85,18.36,70.43,64,71.01,75,3.36,BA,1598372026
287,Mariakani,-3.86,39.47,78.8,78,78.8,20,9.17,KE,1598372027
288,Moose Factory,51.26,-80.61,53.6,81,53.6,90,12.75,CA,1598372027
289,Chara,56.91,118.26,45.3,70,45.3,62,1.92,RU,1598372027
290,Condado,21.88,-79.84,87.22,74,87.8,54,8.05,CU,1598372028
291,Longyearbyen,78.22,15.64,42.8,60,42.8,20,6.93,SJ,1598372028
292,Kysyl-Syr,63.9,122.76,39.87,67,39.87,0,3.13,RU,1598372028
293,Makat,47.65,53.35,80.15,22,80.15,0,4.72,KZ,1598372029
294,Arlit,18.74,7.39,100.8,26,100.8,0,5.39,NE,1598372029
295,Kavieng,-2.57,150.8,81.61,80,81.61,15,13.53,PG,1598372029
296,Merauke,-8.47,140.33,76.87,79,76.87,36,16.02,ID,1598372029
297,Eston,51.15,-108.75,63.37,77,66.99,20,13.87,CA,1598372030
298,Rio Casca,-20.23,-42.65,73.49,38,73.49,0,8.7,BR,1598372030
299,Bethel,41.37,-73.41,81.34,61,82.99,1,10.29,US,1598372030
300,Walvis Bay,-22.96,14.51,57.56,72,59.0,90,9.17,NA,1598372031
301,Sol'-Iletsk,51.16,54.99,71.22,45,71.22,74,4.38,RU,1598372031
302,Canela,-29.37,-50.82,73.94,39,75.0,22,5.99,BR,1598372031
303,Badajoz,38.67,-6.17,99.0,21,99.0,1,5.99,ES,1598372032
304,Gobabis,-22.45,18.97,81.01,15,81.01,31,15.39,NA,1598372032
305,Payakumbuh,-0.22,100.63,69.51,86,69.51,40,1.39,ID,1598372032
306,Franklin,39.97,-83.02,85.19,70,87.01,20,11.41,US,1598372032
307,Pangnirtung,66.15,-65.71,42.8,100,42.8,90,9.17,CA,1598372033
308,Tondano,1.3,124.91,75.2,88,75.2,20,2.24,ID,1598372033
309,Jacareacanga,-6.22,-57.75,103.08,29,103.08,1,1.68,BR,1598371866
310,Cumpas,29.98,-109.78,87.67,36,87.67,2,2.19,MX,1598372034
311,Kieta,-6.22,155.63,78.26,75,78.26,4,4.27,PG,1598372034
312,Berezayka,57.99,33.9,63.79,79,63.79,100,3.94,RU,1598372034
313,Belaya Gora,68.53,146.42,32.23,94,32.23,5,2.73,RU,1598372035
314,Castelldefels,41.28,1.97,84.6,74,87.01,40,18.34,ES,1598372035
315,Tabuk,17.42,121.44,75.94,74,75.94,88,3.0,PH,1598372035
316,Santa Vitória do Palmar,-33.52,-53.37,65.35,65,65.35,100,12.84,BR,1598372036
317,Pangai,-19.8,-174.35,75.7,76,75.7,1,8.61,TO,1598372036
318,Sarkand,45.41,79.92,63.1,59,63.1,93,1.28,KZ,1598372036
319,Solnechnyy,50.72,136.63,51.98,92,51.98,40,1.88,RU,1598372036
320,Beyneu,45.32,55.2,78.85,20,78.85,0,7.76,KZ,1598372037
321,Mareeba,-17.0,145.43,68.0,72,68.0,40,9.17,AU,1598372037
322,Mackay,-21.15,149.2,51.87,93,52.0,65,5.82,AU,1598372038
323,Nazilli,37.92,28.32,91.4,46,91.4,0,14.99,TR,1598372038
324,Caravelas,-17.71,-39.25,74.28,57,74.28,1,14.97,BR,1598372038
325,Câmara de Lobos,32.63,-16.97,76.8,61,78.8,20,23.04,PT,1598372038
326,Maragogi,-9.01,-35.22,78.53,67,78.53,76,7.38,BR,1598372039
327,Zhigansk,66.77,123.37,43.2,62,43.2,0,7.67,RU,1598372039
328,Ryōtsu-minato,38.08,138.43,73.4,94,73.4,2,1.12,JP,1598372039
329,Pandan,14.05,124.17,81.93,80,81.93,100,6.15,PH,1598372040
330,Severnyy,50.68,36.55,80.6,30,80.6,99,6.71,RU,1598372040
331,Vysokogornyy,50.12,139.15,57.88,95,57.88,99,4.36,RU,1598372040
332,Barra de Tecoanapa,16.52,-98.75,80.44,87,80.44,100,16.64,MX,1598372040
333,Constantine,36.37,6.61,91.4,27,91.4,20,9.17,DZ,1598372041
334,Moindou,-21.69,165.68,57.2,87,57.2,81,2.24,NC,1598372041
335,Ughelli,5.49,6.01,84.18,61,84.18,88,6.22,NG,1598372042
336,Satka,55.04,59.04,59.31,85,59.31,74,9.73,RU,1598372042
337,La Plata,-34.92,-57.95,63.32,74,64.99,100,6.64,AR,1598372042
338,Makkah al Mukarramah,21.43,39.83,98.17,17,98.17,43,14.94,SA,1598372042
339,Montepuez,-13.13,39.0,78.13,44,78.13,70,10.87,MZ,1598372043
340,Bilibino,68.05,166.44,39.72,91,39.72,99,2.84,RU,1598372043
341,Bollnäs,61.35,16.39,68.0,36,68.0,12,1.99,SE,1598372043
342,San Fernando del Valle de Catamarca,-28.47,-65.79,71.42,33,73.99,0,1.99,AR,1598371857
343,Inírida,3.87,-67.92,87.33,61,87.33,42,2.95,CO,1598372044
344,Sainte-Maxime,43.3,6.63,83.21,45,87.8,32,9.17,FR,1598372044
345,Soyo,-6.13,12.37,75.99,79,75.99,67,8.99,AO,1598372044
346,Honiara,-9.43,159.95,75.2,94,75.2,20,2.24,SB,1598372045
347,Idritsa,56.33,28.9,63.48,86,63.48,100,3.53,RU,1598372002
348,Auburn,47.31,-122.23,58.24,72,61.0,20,3.36,US,1598371915
349,Ginda,30.69,78.49,65.77,88,65.77,36,1.9,IN,1598372045
350,Vao,-22.67,167.48,67.78,65,67.78,58,10.33,NC,1598372046
351,Katsuura,35.13,140.3,77.27,88,78.8,20,5.82,JP,1598372046
352,Coos Bay,43.37,-124.22,54.34,100,57.0,40,6.49,US,1598372020
353,Paraíso,9.84,-83.87,71.74,83,72.0,75,10.29,CR,1598371820
354,Tagusao,9.19,117.81,80.28,76,80.28,47,5.46,PH,1598372046
355,Carauari,-4.88,-66.9,97.57,30,97.57,37,1.57,BR,1598372046
356,São Filipe,14.9,-24.5,79.97,79,79.97,68,5.01,CV,1598372047
357,Chifeng,42.27,118.96,68.61,55,68.61,100,0.34,CN,1598372047
358,Bardstown,37.81,-85.47,82.56,65,82.99,1,3.29,US,1598372048
359,Faya,18.39,42.45,78.8,54,78.8,75,11.41,SA,1598372048
360,Lermontovka,47.15,134.34,64.83,96,64.83,30,4.72,RU,1598372049
361,Conde,-7.26,-34.91,84.2,58,84.2,40,9.17,BR,1598372049
362,Lorengau,-2.02,147.27,82.31,79,82.31,38,14.99,PG,1598372049
363,Constitución,-35.33,-72.42,55.29,77,55.29,78,22.12,CL,1598372049
364,Knysna,-34.04,23.05,59.0,82,59.0,75,14.99,ZA,1598372050
365,San Cristobal,7.77,-72.22,89.6,49,89.6,40,10.29,VE,1598372050
366,Durango,24.83,-104.83,66.97,57,66.97,0,8.48,MX,1598371806
367,Hasaki,35.73,140.83,74.73,100,75.2,75,4.7,JP,1598372051
368,Malanje,-9.54,16.34,80.91,35,80.91,93,2.98,AO,1598372051
369,Kenai,60.55,-151.26,48.87,93,50.0,90,0.83,US,1598371837
370,Aras,42.56,-2.36,95.0,21,95.0,0,2.24,ES,1598372051
371,Koygorodok,60.45,51.0,58.19,93,58.19,0,6.51,RU,1598372051
372,Miranda,3.25,-76.23,78.8,74,78.8,75,6.93,CO,1598372052
373,Mahébourg,-20.41,57.7,71.6,73,71.6,20,6.93,MU,1598372052
374,Mizdah,31.45,12.98,89.19,22,89.19,0,18.07,LY,1598372052
375,Vieques,18.43,-65.83,87.1,79,89.01,40,9.17,PR,1598372052
376,Adré,13.47,22.2,76.86,77,76.86,97,4.68,TD,1598372053
377,Beloha,-25.17,45.05,69.94,79,69.94,21,8.21,MG,1598372053
378,Laas,46.62,10.7,62.6,59,62.6,75,6.93,IT,1598372053
379,Cascais,38.7,-9.42,83.88,33,86.0,0,18.34,PT,1598371924
380,Souillac,-20.52,57.52,71.6,73,71.6,20,6.93,MU,1598372054
381,Ponta Delgada,37.73,-25.67,77.0,83,77.0,20,9.17,PT,1598372054
382,Bonthe,7.53,-12.51,77.99,82,77.99,80,12.01,SL,1598372054
383,Aykhal,66.0,111.5,51.8,59,51.8,63,6.71,RU,1598372054
384,Pemangkat,1.17,108.97,79.41,78,79.41,100,4.88,ID,1598372055
385,Ofakim,31.31,34.62,82.0,51,82.0,0,3.0,IL,1598372055
386,Makurdi,7.74,8.51,81.7,71,81.7,46,3.78,NG,1598372055
387,Waterfoot,53.69,-2.25,57.16,98,57.99,100,10.0,GB,1598372055
388,Lixouri,38.2,20.43,86.0,89,86.0,20,10.29,GR,1598372055
389,Ancud,-41.87,-73.82,47.26,93,53.01,90,6.93,CL,1598372056
390,Omsukchan,62.53,155.8,31.41,94,31.41,0,2.55,RU,1598372056
391,Salihorsk,52.79,27.54,58.62,96,58.62,100,5.14,BY,1598372057
392,Turan,16.07,108.22,86.0,79,86.0,20,3.36,VN,1598372057
393,Tessalit,20.2,1.01,99.77,25,99.77,49,7.92,ML,1598372057
394,Bangkalan,-7.05,112.74,79.48,78,79.48,7,7.07,ID,1598372057
395,Spirit River,55.78,-118.84,53.6,71,53.6,20,11.41,CA,1598372058
396,Daru,-9.08,143.21,76.32,86,76.32,100,16.42,PG,1598372058
397,Salalah,17.02,54.09,77.0,94,77.0,90,5.82,OM,1598372059
398,Tegul'det,57.31,88.17,53.82,92,53.82,100,0.89,RU,1598372059
399,Shelbyville,35.48,-86.46,83.08,69,84.0,40,5.91,US,1598372059
400,Bongandanga,1.5,21.05,81.54,71,81.54,69,2.51,CD,1598372060
401,Yenagoa,4.92,6.26,85.03,58,85.03,83,4.72,NG,1598372060
402,Meulaboh,4.14,96.13,78.15,86,78.15,53,4.12,ID,1598372061
403,Korla,41.76,86.15,85.66,24,85.66,0,10.54,CN,1598372054
404,Channel-Port aux Basques,47.57,-59.14,64.04,70,64.04,100,18.12,CA,1598372061
405,Fairbanks,64.84,-147.72,51.13,100,51.8,90,3.36,US,1598371946
406,Sompeta,18.93,84.6,80.42,82,80.42,100,6.85,IN,1598372062
407,Hambantota,6.12,81.12,82.4,83,82.4,40,6.93,LK,1598372062
408,Yārāda,17.65,83.27,80.6,94,80.6,90,2.24,IN,1598372062
409,Goundam,16.41,-3.67,91.17,44,91.17,83,1.41,ML,1598372063
410,Lüderitz,-26.65,15.16,59.45,70,59.45,0,11.21,NA,1598372063
411,Sheregesh,52.92,87.99,52.39,97,52.39,100,2.8,RU,1598372063
412,Tramandaí,-29.98,-50.13,66.02,66,66.02,35,20.98,BR,1598372063
413,Itoman,26.12,127.67,82.27,88,82.4,75,13.87,JP,1598372064
414,Talcahuano,-36.72,-73.12,55.4,82,55.4,75,18.34,CL,1598372064
415,Port Moresby,-9.44,147.18,75.2,94,75.2,90,11.41,PG,1598372064
416,Comodoro Rivadavia,-45.87,-67.5,41.0,93,41.0,40,3.36,AR,1598372064
417,Brookings,44.31,-96.8,75.81,73,77.0,1,9.17,US,1598371825
418,Deputatsky,69.3,139.9,23.74,98,23.74,20,2.37,RU,1598371926
419,Okhotsk,59.38,143.3,51.94,86,51.94,100,13.96,RU,1598372066
420,Desna,50.93,30.76,73.45,73,73.99,40,6.71,UA,1598372067
421,Yarmouth,41.71,-70.23,82.74,66,84.2,1,9.17,US,1598371890
422,Zhongshu,24.52,103.77,61.72,85,61.72,24,1.61,CN,1598372067
423,Lavrentiya,65.58,-171.0,43.66,95,43.66,92,2.53,RU,1598371926
424,Teseney,15.11,36.66,85.86,60,85.86,81,1.81,ER,1598372068
425,Harlingen,26.19,-97.7,82.35,88,84.99,75,6.93,US,1598372068
426,Dwārka,22.24,68.97,82.81,80,82.81,30,20.2,IN,1598372068
427,Praia,14.92,-23.51,87.8,66,87.8,20,9.17,CV,1598372069
428,San Jerónimo,-11.95,-75.28,61.0,33,61.0,0,2.68,PE,1598372069
429,Jinchang,38.5,102.17,75.99,23,75.99,0,4.29,CN,1598372069
430,Castlemaine,-37.07,144.22,35.65,50,36.0,1,2.75,AU,1598371960
431,Trincomalee,8.57,81.23,82.35,79,82.35,100,7.34,LK,1598372070
432,Jinxiang,22.86,115.7,83.35,84,83.35,49,12.64,CN,1598372071
433,Fortuna Foothills,32.66,-114.41,94.1,36,97.0,1,3.36,US,1598371974
434,Tomatlán,19.93,-105.25,87.24,69,87.24,15,1.54,MX,1598372071
435,Gazli,40.13,63.45,74.12,35,74.12,67,15.26,UZ,1598372072
436,Aranos,-24.13,19.12,79.93,16,79.93,2,5.77,NA,1598372072
437,Halden,59.12,11.39,61.23,55,62.6,13,13.87,NO,1598372073
438,Winnipeg,49.88,-97.15,70.9,60,71.6,75,10.29,CA,1598372036
439,Santa María del Oro,25.93,-105.37,71.96,49,71.96,0,7.18,MX,1598372073
440,Tautira,-17.73,-149.15,71.29,88,71.6,20,4.7,PF,1598372073
441,Santa Cecília,-26.96,-50.43,62.87,55,62.87,11,5.5,BR,1598372074
442,Gorontalo,0.54,123.06,75.43,86,75.43,93,6.2,ID,1598372074
443,Neyshabur,36.21,58.8,67.37,40,67.37,21,6.24,IR,1598372074
444,Kaitangata,-46.28,169.85,39.99,81,39.99,69,7.0,NZ,1598372075
445,Santa Isabel Rio Negro,-0.41,-65.02,97.02,36,97.02,17,0.96,BR,1598372075
446,Plouzané,48.38,-4.62,65.64,82,66.2,90,20.8,FR,1598371921
447,Tadine,-21.55,167.88,67.01,76,67.01,94,11.45,NC,1598372076
448,Bontang,0.13,117.5,78.15,85,78.15,81,6.64,ID,1598372076
449,Lagoa,39.05,-27.98,74.21,87,74.21,21,17.47,PT,1598372076
450,Güstrow,53.8,12.17,65.62,55,66.2,75,4.7,DE,1598372077
451,Kontagora,10.4,5.47,78.28,79,78.28,44,5.3,NG,1598372077
452,Lata,40.16,-8.33,85.71,46,87.01,0,9.6,PT,1598372077
453,Malakal,9.53,31.66,77.9,81,77.9,88,3.15,SS,1598372078
454,Semey,50.41,80.23,61.99,59,61.99,85,14.83,KZ,1598372078
455,Foumban,5.73,10.9,70.92,94,70.92,98,0.85,CM,1598372078
456,Jieshi,22.81,115.83,83.57,85,83.57,48,15.01,CN,1598372079
457,Maceió,-9.67,-35.74,78.8,69,78.8,75,11.41,BR,1598372079
458,Quatre Cocos,-20.21,57.76,71.8,73,72.0,20,6.93,MU,1598372079
459,Chernushka,56.51,56.08,61.68,94,61.68,52,8.25,RU,1598372080
460,Tura,25.52,90.22,75.81,95,75.81,97,6.87,IN,1598372080
461,San Policarpo,12.18,125.51,80.94,84,80.94,100,3.53,PH,1598372081
462,Tiarei,-17.53,-149.33,71.29,88,71.6,20,4.7,PF,1598372081
463,Mitsamiouli,-11.38,43.28,78.8,74,78.8,20,7.23,KM,1598372082
464,Burkburnett,34.1,-98.57,83.97,61,86.0,40,5.82,US,1598371904
465,Khanpur,28.65,70.66,94.39,50,94.39,89,10.76,PK,1598372083
466,Yar-Sale,66.83,70.83,53.87,77,53.87,16,7.61,RU,1598372083
467,Zhezkazgan,47.8,67.71,67.77,31,67.77,0,9.66,KZ,1598372084
468,Gunnedah,-30.98,150.25,33.8,86,33.8,0,5.82,AU,1598372084
469,Ranau,5.95,116.66,81.52,88,82.4,20,0.43,MY,1598372084
470,Yerky,48.99,30.99,79.32,27,79.32,55,5.95,UA,1598372085
471,Ust-Kuyga,70.02,135.6,30.51,96,30.51,7,4.18,RU,1598372085
472,George,-33.96,22.46,59.0,82,59.0,75,14.99,ZA,1598372086
473,Preobrazheniye,42.9,133.91,69.21,93,69.21,47,2.24,RU,1598371925
474,Boa Vista,2.82,-60.67,86.0,66,86.0,75,8.05,BR,1598372041
475,Ixtapa,20.7,-105.2,79.11,100,82.99,90,6.93,MX,1598372087
476,Alcains,39.92,-7.46,95.22,15,100.0,9,4.0,PT,1598372087
477,Sukhoy Log,56.91,62.03,60.89,91,60.89,100,8.88,RU,1598372087
478,Basco,20.45,121.97,84.29,81,84.29,40,25.28,PH,1598372087
479,Conceição da Barra,-18.59,-39.73,78.01,41,78.01,0,9.73,BR,1598372088
480,Touho,-20.78,165.23,69.8,76,69.8,100,12.48,NC,1598372088
481,Itaituba,-4.28,-55.98,89.6,62,89.6,20,8.05,BR,1598372089
482,São Paulo de Olivença,-3.38,-68.87,94.1,37,94.1,100,1.19,BR,1598372089
483,Safaga,26.73,33.94,96.8,32,96.8,0,3.36,EG,1598372089
484,Bismarck,46.81,-100.78,70.11,88,71.01,90,8.05,US,1598371999
485,Moshi,-3.35,37.33,84.2,32,84.2,40,11.41,TZ,1598371821
486,Kouvola,60.87,26.7,60.17,67,62.6,20,10.29,FI,1598371943
487,Viedma,-40.81,-63.0,48.99,93,48.99,100,11.01,AR,1598372090
488,Grindavik,63.84,-22.43,51.8,76,51.8,75,5.82,IS,1598372090
489,Wasilla,61.58,-149.44,50.32,100,51.8,90,1.32,US,1598372091
490,Puerto del Rosario,28.5,-13.86,80.6,74,80.6,27,13.87,ES,1598372091
491,Vestmannaeyjar,63.44,-20.27,53.6,71,53.6,20,10.29,IS,1598372092
492,Vanimo,-2.67,141.3,77.9,86,77.9,62,7.45,PG,1598372092
493,Klyuchi,52.27,79.17,58.69,68,58.69,42,9.44,RU,1598372092
494,Plérin,48.54,-2.78,69.94,68,70.0,90,19.46,FR,1598372093
495,Mount Isa,-20.73,139.5,69.8,19,69.8,7,8.05,AU,1598372093
496,Cap-aux-Meules,47.38,-61.86,68.0,82,68.0,90,18.34,CA,1598372093
497,Mbalmayo,3.52,11.5,80.6,69,80.6,75,2.24,CM,1598372094
498,Kingman,35.19,-114.05,89.87,35,96.01,1,4.7,US,1598372094
499,‘Āhuimanu,21.44,-157.84,77.34,74,78.8,75,5.82,US,1598372095
500,San Rafael,-34.62,-68.33,64.51,28,64.51,0,16.11,AR,1598372095
501,Broome,42.25,-75.83,76.26,73,79.0,75,10.29,US,1598372096
502,Newport,51.59,-3.0,61.77,93,66.0,96,8.01,GB,1598372096
503,Sotnikovo,51.88,107.48,53.6,87,53.6,0,2.24,RU,1598371924
504,Port Macquarie,-31.43,152.92,39.99,94,39.99,6,8.03,AU,1598372040
505,Taoudenni,22.68,-3.98,108.77,17,108.77,52,13.71,ML,1598372096
506,Gonzalez,30.58,-87.29,84.72,15,88.0,100,1.01,US,1598372097
507,Batagay-Alyta,67.8,130.41,32.68,92,32.68,72,1.39,RU,1598372097
508,Vetluga,57.86,45.78,63.45,76,63.45,4,4.45,RU,1598372098
509,Upata,8.01,-62.4,89.01,64,89.01,7,1.99,VE,1598372098
510,Hargeisa,9.56,44.06,79.47,46,79.47,90,14.99,SO,1598372098
511,Bereda,43.27,-7.54,82.94,61,84.0,0,8.01,ES,1598372099
512,Christchurch,-43.53,172.63,38.62,69,42.01,5,9.17,NZ,1598372059
513,Mokhsogollokh,61.47,128.92,38.46,76,38.46,0,1.66,RU,1598371925
514,La Paz,-16.5,-68.15,55.4,37,55.4,40,13.87,BO,1598372099
515,Sirte,31.21,16.59,82.36,67,82.36,5,10.96,LY,1598372100
516,Pirapozinho,-22.28,-51.5,75.2,33,75.2,0,14.99,BR,1598372100
517,Corowa,-36.03,146.38,34.0,93,34.0,0,2.82,AU,1598372100
518,Taseyevo,57.22,94.9,54.61,88,54.61,59,4.25,RU,1598371955
519,Saint-Donat-de-Montcalm,46.32,-74.22,65.1,60,65.1,79,15.37,CA,1598372101
520,Akdepe,42.06,59.38,71.62,40,73.4,20,9.17,TM,1598372101
521,Amapá,1.0,-52.0,93.2,39,93.2,2,4.47,BR,1598372101
522,Marshall,34.38,-86.33,73.31,100,75.0,90,8.3,US,1598372102
523,Betioky,-23.72,44.38,72.64,47,72.64,22,7.29,MG,1598372102
524,Richards Bay,-28.78,32.04,70.52,74,70.52,0,11.7,ZA,1598372102
525,Ames,42.03,-93.62,85.03,69,89.01,1,12.17,US,1598372086
526,Zhizdra,53.75,34.74,65.39,92,65.39,90,5.86,RU,1598372103
527,Saint-Joseph,-21.37,55.62,66.65,73,72.0,90,3.36,RE,1598372103
528,Erzin,36.96,36.2,82.99,80,82.99,0,1.99,TR,1598372104
529,Antalaha,-14.9,50.28,71.74,84,71.74,1,9.62,MG,1598372104
530,Okato,-39.2,173.88,44.49,83,45.0,100,8.99,NZ,1598372104
531,Kudahuvadhoo,2.67,72.89,83.88,74,83.88,100,13.98,MV,1598372104
532,Sattahip,12.67,100.9,80.6,83,80.6,20,11.56,TH,1598372105
533,Ballina,-28.87,153.57,51.76,82,57.2,75,5.82,AU,1598372105
534,Sioux Lookout,50.1,-91.92,60.8,87,60.8,75,5.82,CA,1598372105
535,Pundaguitan,6.37,126.17,83.32,79,83.32,85,13.76,PH,1598372105
536,Qasigiannguit,68.82,-51.19,42.8,81,42.8,75,8.05,GL,1598372106
537,Anadyr,64.75,177.48,46.18,100,46.4,75,4.47,RU,1598372106
538,Conselheiro Lafaiete,-20.66,-43.79,62.6,42,62.6,20,8.05,BR,1598372106
539,Al Bardīyah,31.76,25.09,80.91,63,80.91,0,15.79,LY,1598372107
540,Pāsighāt,28.07,95.33,82.27,69,82.27,0,3.18,IN,1598372107
541,Matara,5.95,80.54,79.25,85,79.25,100,6.29,LK,1598372079
542,Kassala,15.45,36.4,90.37,46,90.37,55,3.96,SD,1598372108
543,Itarema,-2.92,-39.92,86.65,51,86.65,7,15.79,BR,1598372108
544,Teknāf,20.86,92.31,79.5,89,79.5,96,15.14,BD,1598372108
545,Saint-Marc,19.11,-72.69,84.81,61,84.81,2,1.43,HT,1598372108
546,Beba,22.44,-79.73,86.0,74,86.0,75,12.75,CU,1598371821
547,Brownsville,25.9,-97.5,83.44,83,84.99,20,3.36,US,1598372109
548,Adrar,20.5,-10.07,105.91,14,105.91,100,5.46,MR,1598372109
549,Sabha,27.04,14.43,96.67,11,96.67,0,14.32,LY,1598372109
550,Nuuk,64.18,-51.72,51.8,53,51.8,75,5.82,GL,1598372045
551,Den Helder,52.96,4.76,62.85,88,63.0,90,20.8,NL,1598372110
552,Bubaque,11.28,-15.83,81.73,74,81.73,74,8.34,GW,1598372110
553,Rongcheng,30.63,117.85,76.24,90,76.24,63,1.54,CN,1598372110
554,Omboué,-1.57,9.26,78.17,71,78.17,62,8.95,GA,1598372111
555,Porbandar,21.64,69.61,82.2,82,82.2,96,17.45,IN,1598372111
556,Homer,59.64,-151.55,50.31,87,52.0,90,5.82,US,1598372108
557,Luganville,-15.53,167.17,78.8,94,78.8,75,4.7,VU,1598372111
